[
    {
        "Police Station": "Sadar Police Station",
        "Sub Division": "Nagpur",
        "District": "Nagpur",
        "Range": "Nagpur",
        "Constables": 7,
        "Officers": 2,
        "Population": 400000,
        "FIR": 13,
        "Latitude": 21.1616632,
        "Longitude": 79.0714362
    },
    {
        "Police Station": "Sitabuldi Police Station",
        "Sub Division": "Nagpur",
        "District": "Nagpur",
        "Range": "Nagpur",
        "Constables": 10,
        "Officers": 5,
        "Population": 500000,
        "FIR": 28,
        "Latitude": 21.1439784,
        "Longitude": 79.0806267
    },
    {
        "Police Station": "Sonegaon Police Station",
        "Sub Division": "Nagpur",
        "District": "Nagpur",
        "Range": "Nagpur",
        "Constables": 12,
        "Officers": 4,
        "Population": 450000,
        "FIR": 20,
        "Latitude": 21.090485,
        "Longitude": 79.0642392
    },
    {
        "Police Station": "Ajni Police Station",
        "Sub Division": "Ajni",
        "District": "Nagpur",
        "Range": "Nagpur",
        "Constables": 13,
        "Officers": 5,
        "Population": 460000,
        "FIR": 7,
        "Latitude": 21.123862,
        "Longitude": 79.08471700000001
    },
    {
        "Police Station": "MIDC Police Station",
        "Sub Division": "Nagpur",
        "District": "Nagpur",
        "Range": "Nagpur",
        "Constables": 10,
        "Officers": 2,
        "Population": 350000,
        "FIR": 18,
        "Latitude": 21.1249059,
        "Longitude": 79.0082508
    },
    {
        "Police Station": "Kanhan Police Station",
        "Sub Division": "Kanhan",
        "District": "Nagpur",
        "Range": "Nagpur",
        "Constables": 7,
        "Officers": 3,
        "Population": 300000,
        "FIR": 16,
        "Latitude": 21.2254878,
        "Longitude": 79.2340236
    },
    {
        "Police Station": "Khaparkheda Police Station",
        "Sub Division": "Kanhan",
        "District": "Nagpur",
        "Range": "Nagpur",
        "Constables": 9,
        "Officers": 4,
        "Population": 320000,
        "FIR": 30,
        "Latitude": 21.2718244,
        "Longitude": 79.1191269
    },
    {
        "Police Station": "Mouda Police Station",
        "Sub Division": "Kanhan",
        "District": "Nagpur",
        "Range": "Nagpur",
        "Constables": 5,
        "Officers": 4,
        "Population": 280000,
        "FIR": 25,
        "Latitude": 21.1456249,
        "Longitude": 79.3972663
    },
    {
        "Police Station": "Ramtek Police Station",
        "Sub Division": "Ramtek",
        "District": "Nagpur",
        "Range": "Nagpur",
        "Constables": 8,
        "Officers": 2,
        "Population": 340000,
        "FIR": 10,
        "Latitude": 21.396722,
        "Longitude": 79.3241446
    },
    {
        "Police Station": "Deolapar Police Station",
        "Sub Division": "Ramtek",
        "District": "Nagpur",
        "Range": "Nagpur",
        "Constables": 12,
        "Officers": 3,
        "Population": 350000,
        "FIR": 18,
        "Latitude": 21.5875127,
        "Longitude": 79.36990879999999
    },
    {
        "Police Station": "Aroli Police Station",
        "Sub Division": "Ramtek",
        "District": "Nagpur",
        "Range": "Nagpur",
        "Constables": 12,
        "Officers": 4,
        "Population": 370000,
        "FIR": 16,
        "Latitude": 21.1458004,
        "Longitude": 79.0881546
    },
    {
        "Police Station": "Parshivni Police Station",
        "Sub Division": "Ramtek",
        "District": "Nagpur",
        "Range": "Nagpur",
        "Constables": 7,
        "Officers": 3,
        "Population": 300000,
        "FIR": 30,
        "Latitude": 21.1458004,
        "Longitude": 79.0881546
    },
    {
        "Police Station": "Saoner Police Station",
        "Sub Division": "Saoner",
        "District": "Nagpur",
        "Range": "Nagpur",
        "Constables": 7,
        "Officers": 2,
        "Population": 280000,
        "FIR": 25,
        "Latitude": 21.3862354,
        "Longitude": 78.9218925
    },
    {
        "Police Station": "Kalmeshwar Police Station",
        "Sub Division": "Saoner",
        "District": "Nagpur",
        "Range": "Nagpur",
        "Constables": 12,
        "Officers": 6,
        "Population": 450000,
        "FIR": 10,
        "Latitude": 21.2340793,
        "Longitude": 78.9114805
    },
    {
        "Police Station": "Khapa Police Station",
        "Sub Division": "Saoner",
        "District": "Nagpur",
        "Range": "Nagpur",
        "Constables": 6,
        "Officers": 3,
        "Population": 260000,
        "FIR": 18,
        "Latitude": 21.4142348,
        "Longitude": 78.98621709999999
    },
    {
        "Police Station": "Kelwad Police Station",
        "Sub Division": "Saoner",
        "District": "Nagpur",
        "Range": "Nagpur",
        "Constables": 8,
        "Officers": 4,
        "Population": 320000,
        "FIR": 16,
        "Latitude": 21.4606705,
        "Longitude": 78.8806286
    },
    {
        "Police Station": "Narkhed Police Station",
        "Sub Division": "Katol",
        "District": "Nagpur",
        "Range": "Nagpur",
        "Constables": 13,
        "Officers": 5,
        "Population": 400000,
        "FIR": 30,
        "Latitude": 21.1458004,
        "Longitude": 79.0881546
    },
    {
        "Police Station": "Kondhali Police Station",
        "Sub Division": "Katol",
        "District": "Nagpur",
        "Range": "Nagpur",
        "Constables": 8,
        "Officers": 6,
        "Population": 350000,
        "FIR": 25,
        "Latitude": 21.1370393,
        "Longitude": 78.63765269999999
    },
    {
        "Police Station": "Jalalkheda Police Station",
        "Sub Division": "Katol",
        "District": "Nagpur",
        "Range": "Nagpur",
        "Constables": 9,
        "Officers": 5,
        "Population": 340000,
        "FIR": 32,
        "Latitude": 21.1458004,
        "Longitude": 79.0881546
    },
    {
        "Police Station": "Katol Police Station",
        "Sub Division": "Katol",
        "District": "Nagpur",
        "Range": "Nagpur",
        "Constables": 8,
        "Officers": 4,
        "Population": 320000,
        "FIR": 18,
        "Latitude": 21.273289,
        "Longitude": 78.5859566
    },
    {
        "Police Station": "Kuhi Police Station",
        "Sub Division": "Umred",
        "District": "Nagpur",
        "Range": "Nagpur",
        "Constables": 12,
        "Officers": 3,
        "Population": 350000,
        "FIR": 16,
        "Latitude": 21.0148838,
        "Longitude": 79.3637157
    },
    {
        "Police Station": "Veltur Police Station",
        "Sub Division": "Umred",
        "District": "Nagpur",
        "Range": "Nagpur",
        "Constables": 9,
        "Officers": 8,
        "Population": 400000,
        "FIR": 30,
        "Latitude": 20.8474101,
        "Longitude": 79.32469309999999
    },
    {
        "Police Station": "Umred Police Station",
        "Sub Division": "Umred",
        "District": "Nagpur",
        "Range": "Nagpur",
        "Constables": 7,
        "Officers": 3,
        "Population": 300000,
        "FIR": 25,
        "Latitude": 20.8433255,
        "Longitude": 79.32175649999999
    },
    {
        "Police Station": "Bhiwapur Police Station",
        "Sub Division": "Umred",
        "District": "Nagpur",
        "Range": "Nagpur",
        "Constables": 9,
        "Officers": 2,
        "Population": 260000,
        "FIR": 13,
        "Latitude": 20.8474101,
        "Longitude": 79.32469309999999
    }
]